{
"type": "FeatureCollection",
"crs": { "type": "name", "properties": { "name": "urn:ogc:def:crs:OGC:1.3:CRS84" } },
"features": [
{ "type": "Feature", "properties": { "name": "新北市立圖書館總館", "address": "板橋區貴興路139號", "tel": "02-2953-7868" }, "geometry": { "type": "Point", "coordinates": [ 118.755656385294316, 0.000225955814486 ] } },
{ "type": "Feature", "properties": { "name": "板橋分館", "address": "板橋區文化路1段23號", "tel": "02-2966-4347" }, "geometry": { "type": "Point", "coordinates": [ 118.755656414559695, 0.00022603832791 ] } },
{ "type": "Feature", "properties": { "name": "板橋江子翠分館", "address": "板橋區莊敬路62號", "tel": "02-2253-4412" }, "geometry": { "type": "Point", "coordinates": [ 118.755656540688122, 0.000226175518916 ] } },
{ "type": "Feature", "properties": { "name": "板橋四維分館", "address": "板橋區陽明街168號", "tel": "02-2252-1933" }, "geometry": { "type": "Point", "coordinates": [ 118.755656458996398, 0.00022616738505 ] } },
{ "type": "Feature", "properties": { "name": "板橋溪北分館", "address": "板橋區篤行路二段133號", "tel": "02-2687-6738" }, "geometry": { "type": "Point", "coordinates": [ 118.755656172177666, 0.000225852876024 ] } }
]
}
